{
  "type": "FeatureCollection",
  "features": [{
      "type": "Feature",
      "geometry": {
          "type": "Point",
          "coordinates": [
              8.2146700,
              53.1411800
          ]
      },
      "properties": {
          "name": "Oldenburg",
          "type": "city",
          "url": "http://www.oldenburg.de",
          "source": "http://oldenburg-service.de/pls2.php",
	  "active_support": false
      }
  }, {
      "type": "Feature",
      "properties": {
        "name": "Schlosshöfe",
        "total": 430,
        "address": "Mühlenstraße",
        "type": "Parkhaus"
      },
      "geometry": {
        "type": "Point",
        "coordinates": [
          8.2168988,
          53.1391841
        ]
      }
    },
    {
      "type": "Feature",
      "properties": {
        "name": "Waffenplatz",
        "total": 650,
        "address": "Waffenplatz 3",
        "type": "Parkhaus"
      },
      "geometry": {
        "type": "Point",
        "coordinates": [
          8.21115,
          53.14169
        ]
      }
    },
    {
      "type": "Feature",
      "properties": {
        "name": "City",
        "total": 440,
        "address": "Staulinie 10",
        "type": "Parkhaus"
      },
      "geometry": {
        "type": "Point",
        "coordinates": [
          8.21514,
          53.14161
        ]
      }
    },
    {
      "type": "Feature",
      "properties": {
        "name": "Galeria Kaufhof",
        "total": 326,
        "address": "Ritterstraße",
        "type": "Parkhaus"
      },
      "geometry": {
        "type": "Point",
        "coordinates": [
          8.2161275,
          53.1396571 
        ]
      }
    },
    {
      "type": "Feature",
      "properties": {
        "name": "Pferdemarkt",
        "total": 401,
        "address": "Pferdemarkt 13",
        "type": "Parkplatz"
      },
      "geometry": {
        "type": "Point",
        "coordinates": [
          8.21271,
          53.14727
        ]
      }
    },
    {
      "type": "Feature",
      "properties": {
        "name": "CCO Parkdeck 1",
        "total": 190,
        "address": "Heiligengeiststraße 4",
        "type": "Parkhaus"
      },
      "geometry": {
        "type": "Point",
        "coordinates": [
          8.21322,
          53.14406
        ]
      }
    },
    {
      "type": "Feature",
      "properties": {
        "name": "CCO Parkdeck 2",
        "total": 230,
        "address": "Heiligengeiststraße 4",
        "type": "Parkhaus"
      },
      "geometry": {
        "type": "Point",
        "coordinates": [
          8.21322,
          53.14406 
        ]
      }
    },
    {
      "type": "Feature",
      "properties": {
        "name": "Hbf/ZOB",
        "total": 358,
        "address": "Karlstraße",
        "type": "Parkhaus"
      },
      "geometry": {
        "type": "Point",
        "coordinates": [
          8.2225073,
          53.145681
        ]
      }
    },
    {
      "type": "Feature",
      "properties": {
        "name": "Theaterwall",
        "total": 125,
        "address": "Theaterwall 4",
        "type": "Parkplatz"
      },
      "geometry": {
        "type": "Point",
        "coordinates": [
          8.2127383,
          53.1382987
        ]
      }
    },
    {
      "type": "Feature",
      "properties": {
        "name": "Theatergarage",
        "total": 107,
        "address": "Roonstraße",
        "type": "Parkhaus"
      },
      "geometry": {
        "type": "Point",
        "coordinates": [
          8.2096205,
          53.1382523 
        ]
      }
    },
    {
      "type": "Feature",
      "properties": {
        "name": "Cinemaxx",
        "total": 0,
        "address": "Stau 79-85",
        "type": "Parkhaus"
      },
      "geometry": {
        "type": "Point",
        "coordinates": [
          8.226060,
          53.141114
        ]
      }
    },
    {
      "type": "Feature",
      "properties": {
        "name": "Heiligengeist-Höfe",
        "total": 275,
        "address": "Georgstraße",
        "type": "Parkhaus"
      },
      "geometry": {
        "type": "Point",
        "coordinates": [
          8.2168988,
          53.1391841 
        ]
      }
    }
  ]
}
